[
 {
   "id": 1,
   "name": "Prisma Linnanmaa",
   "description": "Groceries",
   "price": "$",
   "info": "Kauppalinnankuja 1-3",
   "misc": "A hypermarket close to Linnanmaa campus.",
   "url": "https://www.prisma.fi/fi/prisma/myymalat/oulu-linnanmaa",
   "lat": 65.0540746,
   "lng": 25.4554205
 },
 {
   "id": 2,
   "name": "Prisma Limingantulli",
   "description": "Groceries",
   "price": "$",
   "info": "Nuottasaarentie 1",
   "misc": "Biggest hypermarket in Oulu",
   "url": "https://www.prisma.fi/fi/prisma/myymalat/oulu-limingantulli",
   "lat": 64.9942532,
   "lng": 25.4618881
 },
 {
   "id": 3,
   "name": "Prisma Raksila",
   "description": "Groceries",
   "price": "$",
   "info": "Tehtaankatu 3",
   "misc": "Hypermarket in Oulu",
   "url": "https://www.prisma.fi/fi/prisma/myymalat/oulu-raksila",
   "lat": 65.0104222,
   "lng": 25.4905775
 },
 {
   "id": 4,
   "name": "K-Citymarket Raksila",
   "description": "Groceries",
   "price": "$",
   "info": "Tehtaankatu 5",
   "misc": "Famous for the deli counter \"makaronilaatikko\"!",
   "url": "https://www.k-ruoka.fi/kauppa/k-citymarket-oulu-raksila",
   "lat": 65.0103602,
   "lng": 25.4918749
 },
 {
   "id": 5,
   "name": "Shopping mall Valkea",
   "description": "A mall with variety of shops and restaurants",
   "price": "$$",
   "info": "Isokatu 24-25",
   "misc": "A shopping center in the city center. Is open late in the night, so you can drop by and warm before heading wherever you were heading.",
   "url": "https://kauppakeskusvalkea.fi/en/",
   "lat": 65.0111096,
   "lng": 25.4736108
 },
 {
   "id": 6,
   "name": "Shopping mall Ideapark",
   "description": "A mall with variety of shops and restaurants",
   "price": "$$",
   "info": "Ritaharjuntie 49",
   "misc": "Shopping Mall",
   "url": "https://oulu.ideapark.fi/",
   "lat": 65.0761354,
   "lng": 25.4456516
 },
 {
   "id": 7,
   "name": "K-Citymarket Rusko",
   "description": "Groceries",
   "price": "$",
   "info": "Laakeritie 4",
   "misc": "Hypermarket in Oulu",
   "url": "https://www.k-ruoka.fi/kauppa/k-citymarket-oulu-rusko",
   "lat": 65.0394332,
   "lng": 25.5529654
 },
 {
   "id": 8,
   "name": "K-Citymarket Kaakkuri",
   "description": "Groceries",
   "price": "$",
   "info": "Metsokankaantie 5",
   "misc": "Hypermarket in Oulu",
   "url": "https://www.k-ruoka.fi/kauppa/k-citymarket-oulu-kaakkuri",
   "lat": 64.956387,
   "lng": 25.5277095
 }
]