[
 {
   "id": 1,
   "name": "Oulu City Library",
   "description": "Main City Library with free Wi-Fi",
   "price": "Free",
   "info": "Kaarlenväylä 3",
   "misc": "Free Wi-fi and lots of space to study. Good selection to books, magazine and music.",
   "url": "https://www.ouka.fi/oulu/library/",
   "lat": 65.015382,
   "lng": "25.4634099"
 },
 {
   "id": 2,
   "name": "Oulun Taidemuseo",
   "description": "Oulu Museum of Art",
   "price": "$",
   "info": "Kasarmintie 9",
   "misc": "Changing exhibits and interesting artists.",
   "url": "https://www.ouka.fi/oulu/luuppi/oulun-taidemuseo",
   "lat": 65.0180296,
   "lng": "25.4818307"
 },
 {
   "id": 3,
   "name": "Oulun Teatteri",
   "description": "Theater",
   "price": "$$",
   "info": "Kaarlenväylä 2",
   "misc": "",
   "url": "https://teatteri.ouka.fi/",
   "lat": 65.0150885,
   "lng": "25.4620873"
 },
 {
   "id": 4,
   "name": "Ainolan puisto",
   "description": "Outside park",
   "price": "Free",
   "info": "Ainolanpolku 1",
   "misc": "A large central park.",
   "url": "https://www.ouka.fi/oulu/ymparisto-ja-luonto/puistot-ja-viheralueet",
   "lat": 65.0163194,
   "lng": "25.4766669"
 },
 {
   "id": 5,
   "name": "Kiikeli",
   "description": "Outside park",
   "price": "Free",
   "info": "Kiikelinlaituri",
   "misc": "A small beach and park. The usual go-to meetup place.",
   "url": "https://www.ouka.fi/oulu/ymparisto-ja-luonto/puistot-ja-viheralueet",
   "lat": 65.0135216,
   "lng": "25.4598759"
 },
 {
   "id": 6,
   "name": "Swimming pool Raksila",
   "description": "Swimming",
   "price": "$",
   "info": "Pikkukankaantie 3",
   "misc": "",
   "url": "https://www.ouka.fi/oulu/liikunta-ja-ulkoilu/oulun-uimahalli",
   "lat": 65.0091643,
   "lng": "25.4987187"
 },
 {
   "id": 7,
   "name": "Finnkino",
   "description": "Movie Theater",
   "price": "$$",
   "info": "Torikatu 32",
   "misc": "",
   "url": "https://www.finnkino.fi/ohjelmisto/plaza-oulu",
   "lat": 65.0111427,
   "lng": "25.4652641"
 },
 {
   "id": 8,
   "name": "Star",
   "description": "Movie Theater",
   "price": "$",
   "info": "Kalliotie 6",
   "misc": "Student discount",
   "url": "https://www.elokuvateatteristar.fi/hinnasto",
   "lat": 65.0245694,
   "lng": "25.4827496"
 },
 {
   "id": 9,
   "name": "Tori Market place",
   "description": "Summer market shops place",
   "price": "$",
   "info": "Kauppatori",
   "misc": "",
   "url": "https://oulumarket.com/",
   "lat": 65.0138573,
   "lng": "25.4640796"
 },
 {
   "id": 10,
   "name": "Cultural Centre Valve",
   "description": "Cultural center: theatre stages, a cinema, galleries, workshops ",
   "price": "$$",
   "info": "Hallituskatu 7",
   "misc": "Free entry and interesting exhibits.",
   "url": "https://www.kulttuurivalve.fi/fi/",
   "lat": 65.0130255,
   "lng": "25.4729633"
 },
 {
   "id": 11,
   "name": "Tietomaa Science Centre",
   "description": "Tietomaa is a science centre in Oulu",
   "price": "$",
   "info": "Nahkatehtaankatu 6",
   "misc": "",
   "url": "https://www.ouka.fi/oulu/luuppi/tiedekeskus-tietomaa",
   "lat": 65.0181986,
   "lng": "25.486651"
 },
 {
   "id": 12,
   "name": "Nallikari Beach",
   "description": "Beach",
   "price": "Free",
   "info": "Nallikarinranta",
   "misc": "",
   "url": "https://nallikari.fi/en/services/nallikari/",
   "lat": 65.0303487,
   "lng": "25.4116457"
 },
 {
   "id": 13,
   "name": "Hupisaaret Islands",
   "description": "The Hupisaaret Islands City Park is a public urban park in the Myllytulli district in central Oulu",
   "price": "Free",
   "info": "City center",
   "misc": "",
   "url": "https://visitoulu.fi/en/tuote/hupisaaret-2/",
   "lat": 65.018828035285,
   "lng": "25.4801271260471"
 },
 {
   "id": 14,
   "name": "Botanical Gardens (University of Oulu)",
   "description": "Scientific gardens",
   "price": "Free",
   "info": "Kaitoväylä 5",
   "misc": "",
   "url": "https://www.oulu.fi/fi/yliopisto/kasvitieteellinen-puutarha",
   "lat": 65.062788,
   "lng": "25.4843456"
 },
 {
   "id": 15,
   "name": "Northern Ostrobothnia Museum",
   "description": "Museum of cultural history",
   "price": "$",
   "info": "Ainolanpolku 1",
   "misc": "Offers sometimes free entry. Hosts interesting exhibits.",
   "url": "https://www.ouka.fi/oulu/luuppi/pohjois-pohjanmaan-museo",
   "lat": 65.0163194,
   "lng": "25.4766669"
 },
 {
   "id": 16,
   "name": "Ouluhalli",
   "description": "Multi-purpose hall for sports, and events",
   "price": "$",
   "info": "Ouluhallintie 20",
   "misc": "",
   "url": "https://www.ouka.fi/oulu/liikunta-ja-ulkoilu/ouluhalli",
   "lat": 65.0075212,
   "lng": "25.5013198"
 }
]
